City,Cloudiness,Country,Date,Humidity,Lat,Lng,Max Temp,Wind Speed
rikitea,16,PF,1608069807,67,-23.12,-134.97,77.52,3.42
jamestown,75,US,1608069807,62,42.1,-79.24,27.0,4.7
geraldton,0,AU,1608069791,87,-28.77,114.6,60.8,5.82
busselton,0,AU,1608069718,82,-33.65,115.33,53.01,1.99
puerto ayora,40,ES,1608069808,87,36.59,-6.23,55.0,4.7
thompson,75,CA,1608069216,75,55.74,-97.86,-13.0,2.24
port alfred,83,CD,1608069808,70,-7.03,29.76,71.91,5.57
saint-philippe,45,RE,1608069808,94,-21.36,55.77,75.2,12.77
kapaa,40,US,1608069564,74,22.08,-159.32,80.6,14.99
albany,24,US,1608069622,38,42.6,-73.97,28.0,8.86
barrow,1,US,1608069809,76,71.29,-156.79,-5.8,17.22
ushuaia,90,AR,1608069570,81,-54.8,-68.3,42.8,27.51
dongsheng,0,CN,1608069809,83,39.82,109.98,3.38,7.83
sampit,100,ID,1608069809,97,-2.53,112.95,73.9,1.1
santa maria,98,PH,1608069809,77,17.49,120.43,75.76,4.72
liberal,90,US,1608069678,86,37.04,-100.92,28.4,19.46
bluff,85,NZ,1608069810,78,-46.6,168.33,58.06,13.82
castro,1,BR,1608069634,91,-24.79,-50.01,67.55,4.21
tiznit,1,MA,1608069227,75,29.58,-9.5,58.93,0.69
comodoro rivadavia,84,BR,1608069810,70,-13.66,-59.79,77.85,1.45
huntsville,90,US,1608069675,61,34.73,-86.59,48.99,5.82
avarua,92,CK,1608069749,78,-21.21,-159.78,82.4,12.75
mar del plata,0,ES,1608069811,44,43.4,-4.01,59.0,20.8
edelira,0,PY,1608069811,50,-26.75,-55.27,83.17,3.65
bandarbeyla,54,SO,1608069719,77,9.49,50.81,74.08,20.13
pervomayskiy,59,RU,1608069811,98,53.25,40.29,19.0,2.66
hasaki,20,JP,1608069710,74,35.73,140.83,28.4,5.82
tiksi,11,RU,1608069812,85,71.69,128.87,-24.38,3.76
qaanaaq,0,GL,1608069812,66,77.48,-69.36,-0.89,6.67
nanga eboko,0,IN,1608069812,43,27.54,88.62,48.47,4.09
fortuna,96,US,1608069812,93,40.6,-124.16,54.0,4.0
vondrozo,44,MG,1608069812,100,-22.82,47.28,59.76,0.94
yellowknife,20,CA,1608069603,73,62.46,-114.35,-31.0,6.93
bridlington,49,GB,1608069140,87,54.08,-0.19,44.6,8.05
cruzeiro do sul,75,BR,1608069813,78,-22.58,-44.96,73.4,6.93
esperance,32,AU,1608069227,81,-33.87,121.9,51.8,6.93
ituango,100,CO,1608069655,94,7.17,-75.76,66.16,1.43
vao,20,NC,1608069813,75,-22.67,167.48,76.01,24.85
cape town,0,CL,1608069614,22,-36.41,-71.9,78.8,13.87
yulara,100,AU,1608069258,73,-25.24,130.99,73.4,11.41
suwannaphum,12,TH,1608069814,78,15.6,103.8,72.0,10.92
katunino,90,RU,1608069814,92,64.39,40.63,23.0,2.24
mataura,44,NZ,1608069814,48,-46.19,168.86,67.37,9.24
russell,90,US,1608069814,58,32.35,-85.2,55.4,9.17
punta arenas,95,PH,1608069814,83,8.99,125.34,74.57,3.44
novo aripuana,40,CU,1608069815,65,22.78,-82.23,82.4,9.17
hilo,20,US,1608069555,61,19.73,-155.09,80.6,4.7
san ignacio de sabaneta,4,ML,1608069763,19,13.3,-4.9,79.75,7.07
kodiak,90,US,1608069746,74,57.79,-152.41,35.6,10.29
lavrentiya,100,RU,1608069815,95,65.58,-171.0,15.93,16.89
muros,100,ES,1608069815,94,42.78,-9.06,54.0,33.35
juneau,75,US,1608069604,86,58.3,-134.42,33.01,7.81
oparino,100,RU,1608069816,97,59.85,48.28,17.26,7.49
luwuk,89,ID,1608069816,72,-0.95,122.79,79.38,3.71
saint-denis,0,FR,1608069816,93,48.92,2.33,46.0,4.7
grand forks,1,US,1608069816,40,38.88,-109.5,37.99,5.82
cabo san lucas,40,BR,1608069621,69,-8.28,-35.03,80.6,8.05
new norfolk,75,LR,1608069809,94,6.65,-10.59,78.8,2.21
arraial do cabo,75,BR,1608069817,83,-22.84,-46.65,73.4,8.05
novyy urgal,90,RU,1608069817,93,45.01,38.98,37.4,6.71
kaitangata,61,NZ,1608069235,49,-46.28,169.85,66.99,8.99
butaritari,59,KI,1608069817,81,3.07,172.79,81.72,16.46
maceio,0,BR,1608069564,88,-9.67,-35.74,75.2,5.82
puerto del rosario,40,ES,1608069818,87,36.59,-6.23,55.0,4.7
hun,1,LY,1608069818,55,29.13,15.95,51.87,3.33
pevek,100,RU,1608069818,91,69.7,170.31,14.31,12.26
luderitz,0,NA,1608069771,60,-26.65,15.16,68.0,20.8
hermanus,0,ZA,1608069819,90,-34.42,19.23,54.0,8.97
broome,90,US,1608069757,62,42.25,-75.83,26.01,10.29
tuktoyaktuk,75,CA,1608069819,83,69.45,-133.04,-13.0,10.29
khandyga,100,RU,1608069819,76,62.67,135.6,-46.91,0.34
nampa,1,US,1608069815,100,43.54,-116.56,35.01,6.93
hobart,75,AU,1608069611,50,-42.88,147.33,57.2,11.41
kavieng,100,PG,1608069819,71,-2.57,150.8,83.97,5.79
ponta do sol,75,PT,1608069820,72,38.73,-28.27,60.8,8.05
mbandaka,70,CD,1608069820,75,0.05,18.26,75.49,2.98
port elizabeth,83,CD,1608069821,70,-7.03,29.76,71.91,5.57
sitka,75,US,1608069800,78,57.05,-135.33,44.6,16.11
sabang,100,ID,1608069821,78,5.89,95.32,80.44,7.47
saldanha,0,ZA,1608069821,72,-33.01,17.94,60.8,14.99
ilulissat,73,GL,1608069821,53,69.22,-51.1,26.6,18.34
nawa,0,IN,1608069608,54,27.02,75.0,49.48,5.46
khatanga,62,RU,1608069239,84,71.97,102.5,-35.61,0.74
mossoro,94,BR,1608069189,71,-5.19,-37.34,80.67,16.35
vaini,40,TO,1608069822,83,-21.2,-175.2,78.8,18.34
kirakira,94,SB,1608069822,71,-10.45,161.92,85.51,6.96
chapayevka,38,UA,1608069822,94,47.47,36.35,33.26,9.48
namibe,68,AO,1608069822,80,-15.2,12.15,67.05,2.77
fairbanks,90,US,1608069613,60,64.84,-147.72,10.4,3.36
ambilobe,47,MG,1608069822,86,-13.2,49.05,75.0,3.33
dedougou,4,BF,1608069823,18,12.47,-3.47,79.52,5.66
hervey bay,90,US,1608069823,79,33.5,-93.78,37.4,5.82
okhotsk,91,RU,1608069247,85,59.38,143.3,0.28,23.82
statesville,1,US,1608069799,60,35.78,-80.89,42.8,5.82
lianyuan,100,CN,1608069823,88,27.69,111.66,33.67,2.35
split,0,HR,1608069823,75,43.51,16.44,44.6,3.36
sitrah,5,BH,1608069823,77,26.15,50.62,66.2,7.7
port-cartier,100,CA,1608069824,61,50.03,-66.87,14.0,19.46
chuy,1,UY,1608069824,78,-33.7,-53.46,66.88,15.77
adrar,0,MR,1608069224,24,20.5,-10.07,67.69,6.29
vestmannaeyjar,84,IS,1608068996,70,63.44,-20.27,43.43,9.98
gat,61,IL,1608069250,55,31.61,34.76,62.01,3.0
douglas,90,US,1608069540,85,41.3,-96.17,25.0,6.93
lebu,0,CL,1608069737,70,-37.62,-73.65,55.02,23.94
kitob,0,UZ,1608069825,88,39.08,66.83,29.21,0.6
tura,0,IN,1608069825,85,25.52,90.22,59.02,3.71
bousse,0,BF,1608069825,28,12.66,-1.89,82.4,3.36
dunedin,84,NZ,1608069628,66,-45.87,170.5,62.01,11.99
hithadhoo,72,MV,1608069739,70,-0.6,73.08,81.39,10.0
giresun,75,TR,1608069825,72,40.5,38.5,59.0,11.41
torbay,90,CA,1608069799,80,47.67,-52.73,34.0,33.33
aswan,0,EG,1608069748,46,24.09,32.91,57.25,8.32
viedma,0,AR,1608069256,29,-40.81,-63.0,75.0,8.01
meulaboh,100,ID,1608069242,87,4.14,96.13,75.9,4.99
egvekinot,99,RU,1608069826,92,66.32,-179.17,7.79,12.41
tabou,63,CI,1608069826,83,4.42,-7.35,79.03,5.7
voi,31,KE,1608069826,89,-3.39,38.56,71.31,2.98
wamba,30,NG,1608069826,22,8.93,8.6,77.81,4.74
teguise,20,ES,1608069229,77,29.06,-13.56,64.4,9.17
georgetown,20,MY,1608069827,94,5.41,100.34,75.2,2.24
hamilton,90,US,1608069603,51,39.18,-84.53,35.6,14.99
clyde river,100,US,1608069629,72,41.3,-82.98,30.0,1.99
batagay-alyta,27,RU,1608069827,50,67.8,130.41,-32.71,1.07
sangar,59,RU,1608069786,77,63.92,127.47,-47.4,4.97
sola,40,VU,1608069728,74,-13.88,167.55,86.0,11.41
yeniseysk,24,RU,1608069828,86,58.45,92.17,-15.36,8.55
murakami,75,JP,1608069828,86,38.23,139.48,33.8,27.51
omboue,100,GA,1608069828,89,-1.57,9.26,77.4,7.61
mamallapuram,75,IN,1608069828,94,12.63,80.17,77.0,4.7
shimoda,0,JP,1608069828,71,34.67,138.95,33.01,1.01
porto novo,75,PT,1608069040,82,41.15,-8.61,55.4,26.4
ribeira grande,90,ES,1608069829,87,42.75,-8.44,52.0,26.4
talnakh,75,RU,1608069741,76,69.49,88.4,-5.8,13.42
saint-francois,90,FR,1608069829,100,46.42,3.91,48.99,4.7
bethel,47,US,1608069711,60,41.37,-73.41,30.99,6.98
riyadh,0,SA,1608069741,39,24.69,46.72,59.0,6.93
tasiilaq,99,GL,1608069731,63,65.61,-37.64,26.6,13.87
bredasdorp,0,ZA,1608069830,82,-34.53,20.04,55.4,2.24
rorvik,100,NO,1608069830,89,64.86,11.24,38.77,7.61
alekseyevka,98,RU,1608069830,98,50.63,38.69,27.3,5.53
port lincoln,83,CD,1608069821,70,-7.03,29.76,71.91,5.57
biak,89,ID,1608069830,75,-0.91,122.88,78.57,3.98
atuona,22,PF,1608069738,75,-9.8,-139.03,79.07,19.42
yerbogachen,90,RU,1608069777,91,61.28,108.01,-7.37,5.26
mandalgovi,0,MN,1608069831,81,45.76,106.27,0.81,12.37
leningradskiy,100,RU,1608069235,95,69.38,178.42,17.15,22.1
stromness,3,GB,1608069832,93,58.97,-3.3,42.8,6.93
arona,20,ES,1608069832,72,28.1,-16.68,68.0,9.17
evensk,99,RU,1608069832,83,61.95,159.23,8.51,22.32
iquitos,40,PE,1608069704,66,-3.75,-73.25,86.0,3.36
san antonio,4,ML,1608069677,19,13.3,-4.9,79.75,7.07
vila franca do campo,100,PT,1608069832,91,42.03,-8.16,48.99,13.0
lompoc,1,US,1608069771,39,34.64,-120.46,66.0,14.99
nikolskoye,90,RU,1608069833,92,59.7,30.79,30.99,6.71
upernavik,0,GL,1608069833,79,72.79,-56.15,10.8,4.03
phuthaditjhaba,18,ZA,1608069833,85,-28.52,28.82,59.67,5.35
irati,0,BR,1608069833,97,-25.47,-50.65,68.27,1.74
crab hill,1,US,1608069833,64,37.27,-76.49,42.8,10.29
azangaro,88,PE,1608069833,27,-14.92,-70.22,60.94,12.82
bengkulu,100,ID,1608069834,84,-3.8,102.27,75.99,5.23
elizabeth city,75,US,1608069826,43,40.66,-74.21,37.0,12.75
lengshuitan,100,CN,1608069834,91,26.41,111.6,33.48,8.52
hay river,95,GB,1608069834,92,52.07,-3.13,45.0,1.01
mao,0,ES,1608069834,93,39.89,4.27,55.4,5.41
half moon bay,75,LR,1608069835,94,6.38,-10.7,78.8,6.02
jeremie,88,HT,1608069835,75,18.65,-74.12,78.57,3.8
del rio,75,IR,1608069835,86,38.79,45.07,41.0,4.7
anshun,100,CN,1608069643,93,26.25,105.93,31.44,8.28
victoria,92,HK,1608069679,77,22.29,114.16,57.0,1.01
saskylakh,16,RU,1608069835,83,71.92,114.08,-30.42,4.99
katsuura,75,JP,1608069755,48,35.13,140.3,44.6,11.41
faya,0,SA,1608068994,76,18.39,42.45,53.6,2.77
hanna,100,CA,1608069836,90,51.63,-111.9,17.01,4.0
isoka,67,ZM,1608069836,90,-10.16,32.63,62.06,2.15
sistranda,75,NO,1608069836,86,63.73,8.83,39.2,11.41
rawson,29,AR,1608069569,20,-43.3,-65.1,74.89,14.07
ust-kuyga,43,RU,1608069836,79,70.02,135.6,-38.09,2.42
bam,0,IR,1608069836,52,29.11,58.36,44.37,1.66
phan rang,0,TH,1608069837,100,19.55,99.74,62.6,0.81
partur,29,IN,1608069837,55,19.6,76.22,65.82,5.21
kiboga,41,UG,1608069837,78,0.92,31.77,63.73,2.64
norman wells,90,US,1608069782,100,35.22,-97.44,32.0,8.05
wagar,0,SD,1608069838,76,16.15,36.2,70.39,9.62
hella,20,NO,1608069838,80,67.2,14.43,33.8,9.17
imbituba,40,BR,1608069656,83,-28.24,-48.67,75.2,11.41
antofagasta,75,CL,1608069262,68,-23.65,-70.4,68.0,16.11
touros,40,BR,1608069239,78,-5.2,-35.46,80.6,14.99
neftcala,27,AZ,1608069838,83,39.37,49.25,49.59,4.18
las vegas,90,PL,1608069839,92,49.74,19.43,35.01,2.24
wilmington,90,US,1608069699,57,34.23,-77.94,50.0,13.87
sayat,0,TM,1608069839,91,38.78,63.88,29.12,7.23
maniitsoq,99,GL,1608069839,95,65.42,-52.9,25.74,15.9
sao gabriel da cachoeira,61,IN,1608069840,50,20.51,76.21,68.23,3.78
gimli,100,CA,1608069680,71,50.63,-96.99,8.6,9.17
barcelos,75,PT,1608069574,82,41.54,-8.62,55.4,24.16
lorengau,87,PG,1608069007,75,-2.02,147.27,83.12,2.82
dikson,0,RU,1608069725,86,73.51,80.55,-20.7,2.42
chokurdakh,93,RU,1608069840,86,70.63,147.92,-26.7,2.53
grand river south east,1,US,1608069840,40,38.88,-109.5,37.99,5.82
svetlyy,20,RU,1608069554,78,54.67,20.13,35.6,11.18
takoradi,93,GH,1608069841,87,4.88,-1.76,78.67,6.82
pemangkat,99,ID,1608069841,87,1.17,108.97,76.62,3.51
bowen,100,AU,1608069841,94,-20.02,148.23,77.0,9.69
komsomolets,100,KZ,1608069842,90,53.75,62.07,14.97,8.34
laguna,90,US,1608069842,66,38.42,-121.42,55.0,4.7
akcakoca,100,TR,1608069842,87,41.09,31.12,50.65,6.71
bjelovar,90,HR,1608069842,86,45.9,16.85,37.4,1.12
maymyo,0,MM,1608069842,97,22.03,96.47,56.84,1.36
santos dumont,75,BR,1608069842,94,-23.96,-46.33,77.0,6.93
mogadishu,0,SO,1608069552,79,2.04,45.34,77.13,18.32
mahebourg,75,MU,1608069251,94,-20.41,57.7,77.0,14.99
asau,0,RO,1608069788,100,46.43,26.4,33.01,2.33
saint-louis,0,SN,1608069843,33,16.33,-15.0,77.0,10.92
kulhudhuffushi,0,MV,1608069843,66,6.62,73.07,81.64,5.48
chico,75,US,1608069601,76,39.73,-121.84,51.01,1.14
thomastown,100,IE,1608069843,91,52.53,-7.14,51.01,1.99
parrita,40,CR,1608069843,54,9.52,-84.32,78.8,11.41
herat,0,AF,1608069844,74,34.5,62.0,31.1,4.47
rodrigues alves,4,MU,1608069844,86,-19.7,63.42,75.92,19.39
kjollefjord,75,NO,1608069844,86,70.95,27.35,33.8,3.36
sobolevo,94,RU,1608069844,98,54.43,31.9,28.56,3.96
luganville,75,VU,1608069252,78,-15.53,167.17,82.4,6.93
hami,0,CN,1608069844,75,42.8,93.45,12.94,1.54
kruisfontein,1,ZA,1608069845,83,-34.0,24.73,64.0,1.01
buala,83,SB,1608069845,77,-8.14,159.59,84.31,7.07
berezovyy,98,RU,1608069845,77,51.67,135.7,-5.51,4.32
airai,94,TL,1608069845,100,-8.93,125.41,62.24,2.15
tutoia,20,BR,1608069845,74,-2.76,-42.27,82.4,14.99
macon,20,US,1608069846,86,39.87,-88.97,32.0,17.22
horta,75,PT,1608069649,72,38.53,-28.63,60.8,8.05
visby,100,SE,1608069846,93,57.64,18.3,41.0,16.11
lethem,20,GY,1608069846,52,3.38,-59.8,93.2,13.87
souillac,75,MU,1608069846,94,-20.52,57.52,77.0,14.99
litovko,87,RU,1608069846,76,49.24,135.17,-3.77,6.55
bay roberts,1,US,1608069846,68,43.73,-84.02,24.8,6.93
mgandu,50,TZ,1608069847,82,-5.95,34.13,64.74,2.15
pisco,20,PE,1608069847,69,-13.7,-76.22,73.4,8.05
port macquarie,83,CD,1608069181,70,-7.03,29.76,71.91,5.57
itoman,75,JP,1608069257,77,26.12,127.67,60.8,12.75
chara,69,RU,1608069847,69,56.91,118.26,-19.75,0.56
salinas,1,US,1608069831,44,36.68,-121.66,61.0,8.05
uhlove,27,UA,1608069847,84,44.82,33.6,40.5,17.69
chihuahua,5,MX,1608069730,26,28.5,-106.0,55.4,20.8
dzaoudzi,75,YT,1608069848,88,-12.79,45.27,78.8,2.24
westport,66,US,1608069805,51,41.14,-73.36,35.01,1.01
carnarvon,90,AU,1608069848,94,-24.87,113.63,69.8,18.34
talgar,90,KZ,1608069848,85,43.3,77.24,14.0,4.47
yokadouma,81,CM,1608069849,56,3.52,15.05,74.44,0.81
nanakuli,20,US,1608069604,61,21.39,-158.15,82.4,8.05
sarka ghat,75,IR,1608069849,93,36.55,51.26,44.6,4.7
shihezi,0,CN,1608069849,88,44.3,86.03,3.27,1.1
estelle,90,US,1608069662,81,29.85,-90.11,54.0,6.93
paredon,100,MX,1608069850,64,16.03,-93.87,81.57,5.73
faanui,79,PF,1608069726,79,-16.48,-151.75,80.53,20.27
pandan,55,PH,1608069850,82,14.05,124.17,79.88,15.55
gondanglegi,100,ID,1608069264,90,-7.75,112.01,74.01,4.76
ketchikan,90,US,1608069607,86,55.34,-131.65,41.0,17.22
orikum,2,AL,1608069850,65,40.33,19.47,57.33,1.45
kendari,100,ID,1608069850,87,-3.94,122.5,76.1,4.56
asyut,0,EG,1608069851,50,27.18,31.18,55.4,5.82
oskarshamn,100,SE,1608069851,96,57.26,16.45,42.01,3.0
jumla,0,NP,1608069779,70,29.27,82.18,32.83,7.09
alassio,75,IT,1608069851,62,44.0,8.17,54.0,12.75
tuatapere,79,NZ,1608069851,68,-46.13,167.68,61.39,6.38
porbandar,0,IN,1608069851,51,21.64,69.61,66.09,13.56
apollonia,23,GR,1608069852,76,36.97,24.72,57.2,25.28
binga,100,ZW,1608069852,85,-17.62,27.34,74.73,3.58
san francisco,4,ML,1608069677,19,13.3,-4.9,79.75,7.07
taoudenni,14,ML,1608069852,23,22.68,-3.98,69.71,9.31
mayumba,78,GA,1608069767,90,-3.43,10.66,77.81,6.85
panzhihua,0,CN,1608069853,73,26.59,101.71,49.28,1.48
kamina,100,CD,1608069853,95,-8.74,24.99,63.57,2.28
zlitan,3,LY,1608069854,65,32.47,14.57,59.34,7.76
smidovich,6,RU,1608069854,76,48.6,133.82,-5.69,10.67
nome,90,US,1608069843,85,64.5,-165.41,21.2,23.04
aykhal,75,RU,1608069260,75,66.0,111.5,-16.6,6.71
poum,0,NC,1608069854,70,-20.23,164.02,79.27,7.76
bathsheba,40,BB,1608069779,69,13.22,-59.52,82.4,10.29
axim,98,GH,1608069258,87,4.87,-2.24,78.55,6.87
iqaluit,90,CA,1608069613,73,63.75,-68.51,19.4,12.75
schluchtern,97,DE,1608069855,90,50.35,9.53,44.01,3.0
mubi,34,NG,1608069855,23,10.27,13.26,70.65,2.71
sao filipe,61,IN,1608069840,50,20.51,76.21,68.23,3.78
xining,53,CN,1608069855,86,36.62,101.77,10.22,1.81
dingle,33,PH,1608069856,92,11.0,122.67,74.89,7.85
akdepe,75,TM,1608069856,85,42.06,59.38,15.8,9.17
dubbo,4,AU,1608069755,69,-32.25,148.62,77.0,8.05
kiruna,90,SE,1608069739,92,67.86,20.23,24.8,5.28
cidreira,1,BR,1608069857,89,-30.18,-50.21,73.26,10.76
terrace bay,90,CA,1608069650,100,54.52,-128.6,30.2,2.24
sao miguel do araguaia,61,IN,1608069840,50,20.51,76.21,68.23,3.78
east london,90,IS,1608069857,86,65.0,-15.0,39.2,14.99
ukiah,90,US,1608069554,50,39.15,-123.21,57.0,1.45
salalah,0,OM,1608069857,56,17.02,54.09,71.6,3.36
alice springs,20,US,1608069835,49,27.75,-98.07,75.2,4.7
vostok,100,RU,1608069858,90,46.49,135.88,-16.87,5.28
vanimo,100,PG,1608069858,82,-2.67,141.3,79.59,4.65
kathmandu,20,NP,1608069797,86,27.72,85.32,41.0,3.36
beringovskiy,99,RU,1608069858,95,63.05,179.32,12.54,9.22
auki,30,SB,1608069771,74,-8.77,160.7,84.42,6.85
kungurtug,92,RU,1608069770,86,50.6,97.52,0.73,1.86
sioux lookout,75,US,1608069859,42,42.73,-96.23,26.6,6.93
kaseda,40,JP,1608069859,74,31.42,130.32,30.2,5.82
kavaratti,0,IN,1608069259,64,10.57,72.64,81.25,3.83
urumqi,75,CN,1608069859,83,43.8,87.6,-4.0,0.54
tezu,0,IN,1608069859,35,27.92,96.17,58.59,3.8
paamiut,64,GL,1608069770,89,61.99,-49.67,31.6,10.02
marzuq,0,YE,1608069859,43,14.4,46.47,51.01,1.99
jambi,99,ID,1608069608,92,-1.6,103.62,73.58,1.9
semnan,49,IR,1608069860,73,35.57,53.4,37.06,0.65
rincon,90,US,1608069781,62,32.3,-81.24,51.8,12.75
cherskiy,92,RU,1608069860,88,68.75,161.3,-18.99,3.96
sisimiut,55,GL,1608069860,89,66.94,-53.67,21.88,7.92
berdigestyakh,1,RU,1608069861,84,62.1,126.7,-30.84,3.24
bambous virieux,75,MU,1608069861,94,-20.26,57.41,78.01,14.99
carutapera,92,BR,1608069263,80,-1.2,-46.02,79.07,6.55
kholtoson,2,RU,1608069861,84,50.3,103.31,-2.94,4.54
luanda,20,AO,1608069841,78,-8.84,13.23,77.0,6.93
khasan,0,RU,1608069861,79,42.43,130.64,9.81,26.28
mahajanga,20,MG,1608069861,88,-15.72,46.32,77.0,3.36
kakrala,0,IN,1608069862,45,27.9,79.2,52.34,6.26
coracora,32,PE,1608069862,51,-15.03,-73.78,57.16,11.16
severo-kurilsk,93,RU,1608069739,94,50.68,156.12,31.68,20.2
irbeyskoye,100,RU,1608069862,93,55.64,95.45,12.06,15.61
ugoofaaru,32,MV,1608069862,69,5.67,73.0,81.64,8.37
fergus falls,1,US,1608069863,47,47.3,-109.27,39.2,19.46
coquimbo,75,CL,1608069761,77,-29.95,-71.34,60.8,13.87
cap malheureux,0,FR,1608069863,93,49.27,-1.21,50.0,11.41
ballina,90,AU,1608069798,94,-28.87,153.57,73.99,6.93
port hedland,83,CD,1608069863,70,-7.03,29.76,71.91,5.57
vaitape,82,PF,1608069863,77,-16.52,-151.75,81.39,20.29
loubomo,100,CG,1608069864,96,-4.2,12.67,73.17,4.0
shubarshi,21,KZ,1608069864,88,48.59,57.19,14.31,10.63
avera,90,US,1608069864,66,33.19,-82.53,48.2,9.17
cockburn town,0,AU,1608069864,56,-32.08,141.0,69.8,16.11
dali,0,CN,1608069865,82,25.7,100.18,43.59,3.42
markova,74,UA,1608069865,81,48.68,24.41,34.57,3.09
armidale,75,AU,1608069865,83,-30.52,151.65,64.0,1.01
noumea,20,NC,1608069865,58,-22.28,166.46,82.4,10.29
trelew,19,AR,1608069747,16,-43.25,-65.31,78.21,16.71
ambovombe,37,MG,1608069865,79,-25.17,46.08,71.65,6.98
namatanai,94,PG,1608069865,75,-3.67,152.43,83.21,2.3
limache,0,CL,1608069866,59,-33.02,-71.27,75.2,13.87
ngunguru,5,NZ,1608069866,52,-35.62,174.5,75.99,7.0
makubetsu,99,JP,1608069866,94,45.37,141.82,22.39,17.67
san patricio,4,ML,1608069677,19,13.3,-4.9,79.75,7.07
palana,96,RU,1608069866,94,59.12,159.97,14.76,16.17
vardo,75,NO,1608069866,80,70.37,31.11,30.2,14.99
sompeta,5,IN,1608069867,72,18.93,84.6,70.5,6.04
narsaq,0,GL,1608069867,34,60.92,-46.05,37.4,24.16
khvastovichi,17,RU,1608069867,98,53.47,35.09,19.26,4.12
zheleznodorozhnyy,90,RU,1608069867,92,55.75,38.0,24.8,2.24
aden,0,YE,1608069667,65,12.78,45.04,76.32,11.72
monte san giovanni campano,0,FR,1608069867,93,42.47,9.39,55.0,3.36
thinadhoo,66,MV,1608069868,65,0.53,72.93,81.82,6.31
whitehorse,90,CA,1608069724,84,60.72,-135.05,8.6,5.82
marolambo,28,MG,1608069868,91,-20.05,48.12,65.21,2.01
zwedru,100,LR,1608069868,93,6.07,-8.13,74.07,3.47
jacksonville,90,US,1608069591,82,30.33,-81.66,57.2,18.34
mpika,100,ZM,1608069742,87,-11.83,31.45,64.38,3.18
toamasina,20,MG,1608069869,94,-18.17,49.38,71.6,4.7
gusau,10,NG,1608069869,22,12.16,6.66,74.28,9.37
vanavara,96,RU,1608069869,91,60.34,102.28,-3.91,8.03
camacha,40,PT,1608069869,77,33.08,-16.33,62.6,11.41
natitingou,0,BJ,1608069870,57,10.3,1.38,78.8,2.24
san quintin,4,ML,1608069677,19,13.3,-4.9,79.75,7.07
victoria falls,92,HK,1608069746,77,22.29,114.16,57.0,1.01
ponta delgada,75,PT,1608069870,72,38.73,-28.27,60.8,8.05
provideniya,90,RU,1608069754,78,64.38,-173.3,17.6,8.95
guerrero negro,96,MX,1608069870,57,17.67,-100.0,75.38,3.04
ostrovnoy,100,RU,1608069870,95,68.05,39.51,19.53,18.7
asosa,78,ET,1608069871,30,10.07,34.53,67.39,3.98
san vicente,4,ML,1608069699,19,13.3,-4.9,79.75,7.07
kamenka,100,RU,1608069871,92,51.32,42.77,19.99,5.14
cochabamba,75,BO,1608069871,20,-17.39,-66.16,84.2,13.87
indramayu,100,ID,1608069871,86,-6.33,108.32,77.0,6.51
repalle,5,IN,1608069871,92,16.02,80.85,71.35,4.88
paramonga,46,PE,1608069872,72,-10.67,-77.83,70.97,9.53
morris,5,US,1608069872,55,40.83,-74.53,35.6,8.05
tromso,40,NO,1608069872,80,69.65,18.96,30.2,13.87
beloha,10,MG,1608069872,77,-25.17,45.05,72.99,5.39
pontes e lacerda,75,BR,1608069872,78,-4.83,-43.37,80.6,3.36
ginda,0,IN,1608069872,53,30.69,78.49,37.29,6.6
ganzhou,92,CN,1608069872,74,28.82,115.43,36.91,5.01
kayerkan,75,RU,1608069873,76,69.35,87.76,-5.8,13.42
nizhniy kuranakh,90,RU,1608069873,93,45.39,39.24,37.4,6.71
alofi,90,NU,1608069873,88,-19.06,-169.92,78.8,24.16
kamakhyanagar,0,IN,1608069873,56,20.93,85.55,65.93,0.78
san ignacio,4,ML,1608069699,19,13.3,-4.9,79.75,7.07
marihatag,100,PH,1608069873,88,8.79,126.3,76.21,5.68
grand gaube,1,US,1608069840,40,38.88,-109.5,37.99,5.82
mount gambier,61,GB,1608069874,92,53.66,-1.85,43.0,6.04
goderich,82,CA,1608069874,67,43.75,-81.72,23.0,8.05
cabiraoan,88,PH,1608069874,86,18.32,122.09,75.42,8.7
yabelo,11,ET,1608069874,48,4.88,38.08,59.45,9.91
richards bay,90,US,1608069874,79,46.84,-95.91,19.4,8.05
port augusta,83,CD,1608069821,70,-7.03,29.76,71.91,5.57
shanting,0,CN,1608069875,75,35.08,117.46,26.17,2.01
banyo,0,CM,1608069875,26,6.75,11.82,69.44,2.95
corpus christi,40,HN,1608069875,53,13.29,-87.03,95.0,9.17
kahramanmaras,75,TR,1608069871,100,38.0,37.0,50.0,2.24
kontagora,3,NG,1608069875,20,10.4,5.47,76.19,2.98
haines junction,1,US,1608069875,63,59.23,-135.44,26.6,10.29
harrisonburg,1,US,1608069875,55,38.45,-78.87,35.6,2.73
flinders,93,AU,1608069876,97,-34.58,150.86,73.0,4.0
rocha,47,UY,1608069746,63,-34.48,-54.33,62.96,13.02
kashi,75,CN,1608069764,100,39.45,75.98,24.8,2.24
pacific grove,100,US,1608069876,72,38.48,-90.74,34.0,1.01
tecoanapa,98,MX,1608069876,65,16.52,-98.75,83.21,12.48
palm coast,100,AT,1608069876,92,47.64,16.11,37.99,1.68
mount isa,61,GB,1608069877,92,53.66,-1.85,43.0,6.04
buloh kasap,100,ID,1608069877,79,5.25,96.14,77.58,5.21
andenes,46,NO,1608069877,80,69.31,16.12,35.6,12.75
mgachi,100,RU,1608069877,94,51.05,142.27,6.85,17.18
atambua,95,ID,1608069877,90,-9.11,124.89,75.61,2.77
nelson bay,0,NZ,1608069878,66,-41.28,173.28,75.99,3.0
kahului,40,US,1608069603,58,20.89,-156.47,84.2,18.34
loralai,0,PK,1608069878,67,30.37,68.6,33.91,3.56
tulun,100,RU,1608069878,93,54.56,100.58,16.45,9.1
warrnambool,100,AU,1608069878,92,-38.38,142.48,57.0,15.26
sukhumi,100,GE,1608069878,54,43.0,41.02,58.75,1.66
baneh,100,IR,1608069879,88,36.0,45.89,40.77,3.76
saint-augustin,100,CA,1608069620,99,51.23,-58.65,31.28,15.43
mikepercs,90,HU,1608069879,86,47.45,21.63,39.2,2.24
lamar,90,US,1608069879,93,33.67,-95.58,36.0,9.17
mangrol,3,IN,1608069879,56,21.12,70.12,65.25,14.63
ustka,100,PL,1608069870,78,54.58,16.86,40.78,12.59
codrington,100,AU,1608069879,95,-38.27,141.97,54.72,15.86
khani,90,GE,1608069880,44,41.96,42.96,60.8,12.75
tuensang,0,IN,1608069880,82,26.28,94.83,52.48,2.48
isangel,75,VU,1608069880,66,-19.55,169.27,84.2,20.47
zhigansk,62,RU,1608069765,80,66.77,123.37,-40.94,6.2
tubalan,98,PH,1608069880,75,6.5,125.57,79.43,7.29
lashio,9,MM,1608069880,99,22.93,97.75,57.13,0.96
anori,100,BR,1608069729,97,-3.77,-61.64,72.52,1.07
karakol,75,KG,1608069881,77,42.49,78.39,16.65,4.36
pizarro,100,CO,1608069881,84,4.95,-77.37,79.72,4.99
bahia blanca,62,BR,1608069881,54,-12.0,-42.0,72.55,6.04
karratha,63,AU,1608069792,75,-20.74,116.85,79.12,3.69
san cristobal,4,ML,1608069677,19,13.3,-4.9,79.75,7.07
warri,81,NG,1608069881,91,5.52,5.75,77.13,4.05
crotone,72,IT,1608069882,81,39.09,17.12,45.0,1.01
angoche,100,MZ,1608069882,77,-16.23,39.91,80.51,7.81
pindwara,0,IN,1608069882,63,24.8,73.07,56.62,3.36
porto walter,75,PT,1608069624,82,41.15,-8.61,55.4,24.16
kudahuvadhoo,71,MV,1608069882,73,2.67,72.89,81.23,4.68
lagoa,100,PT,1608069882,71,39.05,-27.98,60.01,15.73
ucluelet,90,CA,1608069846,76,48.93,-125.55,51.01,11.41
banjarmasin,75,ID,1608069680,100,-3.32,114.59,75.2,4.7
caridad,100,PH,1608069883,82,10.83,124.75,78.26,4.97
lima,0,PE,1608069833,68,-12.04,-77.03,73.0,16.11
newport,79,GB,1608069697,97,51.59,-3.0,48.99,1.01
moyale,2,KE,1608069883,39,3.52,39.06,68.04,11.14
san ramon,4,ML,1608069763,19,13.3,-4.9,79.75,7.07
coihaique,75,CL,1608069640,50,-45.58,-72.07,55.4,6.93
sanjwal,40,PK,1608069884,93,33.76,72.43,44.01,6.93
borogontsy,78,RU,1608069731,76,62.67,131.17,-49.95,3.2
port hardy,83,CD,1608069863,70,-7.03,29.76,71.91,5.57
aklavik,90,CA,1608069751,75,68.22,-135.01,-20.2,3.36
huanren,0,CN,1608069884,76,41.26,125.37,3.22,2.53
kloulklubed,90,PW,1608069739,94,7.04,134.26,77.0,4.7
northam,100,GB,1608069885,90,51.03,-4.22,50.0,8.01
mahibadhoo,8,MV,1608069885,73,3.78,72.97,81.54,8.88
chumikan,100,RU,1608069885,78,54.72,135.31,-11.36,26.98
vrangel,0,RU,1608069886,85,42.73,133.08,5.47,20.54
nyurba,77,RU,1608069886,87,63.28,118.33,-17.97,4.79
arman,99,RU,1608069886,82,59.7,150.17,-0.42,16.87
manavalakurichi,40,IN,1608069886,88,8.13,77.3,77.0,6.15
pavilosta,100,LV,1608069886,86,56.89,21.19,33.8,9.17
tual,100,ID,1608069772,76,-5.67,132.75,83.57,16.17
caravelas,28,BR,1608069887,84,-17.71,-39.25,74.89,5.26
chapleau,5,CA,1608069887,54,47.84,-83.4,5.0,2.24
maningrida,99,AU,1608069887,81,-12.07,134.27,80.06,3.38
berlevag,75,NO,1608069887,80,70.86,29.09,35.6,10.29
arlit,18,NE,1608069887,21,18.74,7.39,71.49,7.74
naze,75,JP,1608069888,82,28.37,129.48,57.2,10.29
hovd,18,MN,1608069888,85,48.01,91.64,-1.98,1.19
college,90,US,1608069888,71,64.86,-147.8,10.4,5.82
seoul,1,KR,1608069888,40,37.57,126.98,15.8,9.37
paro,1,BT,1608069888,71,27.43,89.41,35.89,3.53
upington,0,ZA,1608069888,14,-28.45,21.26,78.8,3.36
muhos,90,FI,1608069889,94,64.81,25.99,32.0,9.17
uruburetama,100,BR,1608069889,69,-3.62,-39.51,79.72,6.85
dhidhdhoo,15,MV,1608069889,64,6.88,73.1,81.72,4.92
kulu,100,TR,1608069889,86,39.1,33.08,45.9,10.87
son la,0,NL,1608069889,100,51.51,5.49,43.0,4.7
portmarnock,75,IE,1608069889,81,53.42,-6.14,48.99,6.93
nhulunbuy,95,AU,1608069889,94,-12.23,136.77,78.8,4.92
cangzhou,0,CN,1608069890,70,38.32,116.87,18.84,3.33
penzance,75,GB,1608069890,87,50.12,-5.54,51.8,19.46
portland,75,US,1608069507,87,45.52,-122.68,50.0,16.11
chilca,0,PE,1608069890,68,-12.52,-76.74,73.0,16.11
tazovskiy,99,RU,1608069890,87,67.47,78.7,-8.25,18.77
hue,75,VN,1608069890,100,16.47,107.6,68.0,8.05
husavik,90,IS,1608069890,91,66.04,-17.34,37.4,11.41
iquique,90,CL,1608069891,72,-20.22,-70.14,68.0,6.93
ormstown,33,CA,1608069891,56,45.13,-74.0,14.0,8.05
manta,75,EC,1608069891,73,-0.95,-80.73,77.0,9.17
odienne,39,CI,1608069891,52,9.51,-7.57,78.75,3.85
malakal,95,SS,1608069891,21,9.53,31.66,78.57,5.1
kiyasovo,100,RU,1608069891,80,56.35,53.12,15.01,1.99
dicabisagan,95,PH,1608069742,84,17.08,122.42,77.16,8.97
nanchong,96,CN,1608069892,84,30.8,106.08,42.51,3.74
maneadero,0,MX,1608069892,53,31.72,-116.57,66.99,4.0
campos gerais,0,BR,1608069602,65,-21.75,-41.3,80.6,23.04
nagato,20,JP,1608069669,77,34.38,131.2,37.4,11.41
bucarasica,40,CO,1608069892,66,8.04,-72.87,84.2,6.93
kostomuksha,100,RU,1608069893,98,64.57,30.58,26.89,8.3
cartagena,20,CO,1608069893,79,10.4,-75.51,86.0,14.99
tamana,75,JP,1608069741,86,32.92,130.57,33.8,1.12
znamenskoye,100,RU,1608069893,96,57.13,73.83,10.56,5.01
xiongzhou,97,CN,1608069893,73,25.12,114.3,38.52,5.26
marshall,90,US,1608069893,61,34.38,-86.33,50.0,4.7
las palmas,90,PL,1608069894,92,49.74,19.43,35.01,2.24
wajir,0,KE,1608069894,39,1.75,40.06,81.72,7.45
erdenet,0,MN,1608069894,84,49.03,104.08,0.86,4.74
surt,50,LY,1608069765,62,31.21,16.59,61.52,5.08
sao jose da coroa grande,61,IN,1608069894,50,20.51,76.21,68.23,3.78
macomb,1,US,1608069894,74,40.46,-90.67,30.99,10.29
behat,0,IN,1608069894,51,30.17,77.62,48.09,1.41
honiara,20,SB,1608069895,79,-9.43,159.95,84.2,5.1
hobyo,7,SO,1608069751,76,5.35,48.53,77.43,19.17
isla mujeres,84,PH,1608069895,80,15.89,120.3,75.25,7.47
tyup,85,KG,1608069895,80,42.73,78.36,17.38,3.91
zhoucun,0,CN,1608069895,69,36.82,117.82,23.23,1.97
vinh,99,VN,1608069895,88,18.67,105.67,59.92,8.37
norrtalje,100,SE,1608069686,91,59.76,18.7,46.0,7.0
skibotn,40,NO,1608069896,80,69.39,20.27,30.2,13.87
varhaug,75,NO,1608069896,93,58.61,5.65,44.6,10.29
masumbwe,69,TZ,1608069896,86,-3.63,32.18,64.4,1.9
lake saint louis,90,US,1608069896,68,42.33,-88.0,30.99,4.7
gamba,100,GA,1608069896,89,-2.65,10.0,77.76,6.8
waupun,75,US,1608069896,73,43.63,-88.73,21.2,4.7
mokhsogollokh,69,RU,1608069897,81,61.47,128.92,-40.79,2.28
